complex_id,monthly_mean_2019,entries_10_2020,pct_normal_10_2020,gtfs_longitude,gtfs_latitude,stop_name,borough,division,daytime_routes
1,444045.4166666667,148187,33.37,-73.912034,40.775036,Astoria - Ditmars Blvd,Q,BMT,N W
100,93861.66666666667,33410,35.59,-73.953431,40.70687,Hewes St,Bk,BMT,J M
101,394769.3333333333,122679,31.08,-73.957757,40.708359,Marcy Av,Bk,BMT,J M Z
103,112003.58333333333,33167,29.61,-73.993915,40.72028,Bowery,M,BMT,J Z
107,186038.66666666666,42614,22.91,-74.011056,40.706476,Broad St,M,BMT,J Z
108,93171.5,47836,51.34,-73.889601,40.711396,Middle Village - Metropolitan Av,Q,BMT,M
109,150905,71578,47.43,-73.895877,40.706186,Fresh Pond Rd,Q,BMT,M
110,110209.91666666667,50825,46.12,-73.903077,40.704423,Forest Av,Q,BMT,M
111,90552.66666666667,34863,38.5,-73.90774,40.702762,Seneca Av,Q,BMT,M
113,129059.58333333333,47360,36.7,-73.919711,40.698664,Knickerbocker Av,Bk,BMT,M
114,123179.33333333333,40493,32.87,-73.927397,40.697857,Central Av,Bk,BMT,M
118,142944.16666666666,57306,40.09,-73.986122,40.732849,3 Av,M,BMT,L
119,448087.3333333333,194031,43.3,-73.981628,40.730953,1 Av,M,BMT,L
120,655196.3333333334,241268,36.82,-73.956872,40.717304,Bedford Av,Bk,BMT,L
122,226547.33333333334,76851,33.92,-73.944053,40.714565,Graham Av,Bk,BMT,L
123,157431.83333333334,68541,43.54,-73.94067,40.711926,Grand St,Bk,BMT,L
124,162319.41666666666,64279,39.6,-73.93985,40.707739,Montrose Av,Bk,BMT,L
125,175931.83333333334,66987,38.08,-73.933147,40.706152,Morgan Av,Bk,BMT,L
126,187315.5,70830,37.81,-73.922913,40.706607,Jefferson St,Bk,BMT,L
127,274958.25,129374,47.05,-73.918425,40.703811,DeKalb Av,Bk,BMT,L
129,183419.58333333334,81991,44.7,-73.904084,40.695602,Halsey St,Q,BMT,L
13,335533,69317,20.66,-73.988691,40.745494,28 St,M,BMT,R W
130,109497.41666666667,48255,44.07,-73.904046,40.688764,Wilson Av,Bk,BMT,L
131,50819.416666666664,25646,50.46,-73.905249,40.682829,Bushwick Av - Aberdeen St,Bk,BMT,L
133,41516,20967,50.5,-73.903097,40.675345,Atlantic Av,Bk,BMT,L
134,88834.33333333333,36039,40.57,-73.901975,40.669367,Sutter Av,Bk,BMT,L
135,72760.33333333333,36253,49.83,-73.900571,40.664038,Livonia Av,Bk,BMT,L
136,106213.58333333333,47925,45.12,-73.899232,40.658733,New Lots Av,Bk,BMT,L
137,86027.08333333333,36993,43,-73.899485,40.650573,E 105 St,Bk,BMT,L
138,282883.0833333333,113285,40.05,-73.90185,40.646654,Canarsie - Rockaway Pkwy,Bk,BMT,L
14,592271.75,110058,18.58,-73.989344,40.741303,23 St,M,BMT,R W
141,43674.25,15768,36.1,-73.957624,40.674772,Park Pl,Bk,BMT,S
143,270967.8333333333,93733,34.59,-73.919899,40.868072,Inwood - 207 St,M,IND,A
144,187863,67937,36.16,-73.927271,40.865491,Dyckman St,M,IND,A
145,128440.25,29146,22.69,-73.93418,40.859022,190 St,M,IND,A
146,285357.1666666667,101160,35.45,-73.937969,40.851695,181 St,M,IND,A
147,350809.0833333333,114771,32.72,-73.939704,40.847391,175 St,M,IND,A
149,116500.16666666667,42475,36.46,-73.939892,40.836013,163 St - Amsterdam Av,M,IND,C
150,75696.08333333333,25929,34.25,-73.941514,40.830518,155 St,M,IND,C
151,623647.0833333334,216576,34.73,-73.944216,40.824783,145 St,M,IND,A C
152,147361.66666666666,49343,33.48,-73.947649,40.817894,135 St,M,IND,B C
153,775957,280317,36.13,-73.952343,40.811109,125 St,M,IND,A B C D
154,192558.5,59348,30.82,-73.954882,40.805085,116 St,M,IND,B C
155,200781.25,64361,32.06,-73.958161,40.800603,Cathedral Pkwy (110 St),M,IND,B C
156,125779.58333333333,40578,32.26,-73.961454,40.796092,103 St,M,IND,B C
157,254762.33333333334,86885,34.1,-73.964696,40.791642,96 St,M,IND,B C
158,269884.0833333333,83192,30.83,-73.968916,40.785868,86 St,M,IND,B C
159,368021.8333333333,83089,22.58,-73.972143,40.781433,81 St - Museum of Natural History,M,IND,B C
16,456019.75,83918,18.4,-73.992629,40.730328,8 St - NYU,M,BMT,R W
160,237814.5,64060,26.94,-73.97641,40.775594,72 St,M,IND,B C
162,582944.4166666666,97125,16.66,-73.985984,40.762456,50 St,M,IND,C E
164,3477776.25,478866,13.77,-73.993391,40.752287,34 St - Penn Station,M,IND,A C E
165,608928,142407,23.39,-73.998041,40.745906,23 St,M,IND,C E
167,1178688.1666666667,270825,22.98,-74.000495,40.732338,W 4 St,M,IND,A C E
168,370585.25,74638,20.14,-74.003739,40.726227,Spring St,M,IND,C E
169,536194.8333333334,116634,21.75,-74.005229,40.720824,Canal St,M,IND,A C E
17,363814.3333333333,76918,21.14,-73.997702,40.724329,Prince St,M,BMT,R W
173,297645.5833333333,63555,21.35,-73.990531,40.699337,High St,Bk,IND,A C
175,307816,103517,33.63,-73.985001,40.688484,Hoyt - Schermerhorn Sts,Bk,IND,A C G
176,134448.66666666666,44512,33.11,-73.973946,40.686113,Lafayette Av,Bk,IND,C
177,179662.91666666666,43380,24.15,-73.965838,40.683263,Clinton - Washington Avs,Bk,IND,C
179,474114.1666666667,152022,32.06,-73.950426,40.680438,Nostrand Av,Bk,IND,A C
180,173776.16666666666,52470,30.19,-73.940858,40.679921,Kingston - Throop Avs,Bk,IND,C
181,434052.25,157129,36.2,-73.930729,40.679364,Utica Av,Bk,IND,A C
182,154706.91666666666,60960,39.4,-73.920786,40.678822,Ralph Av,Bk,IND,C
183,151414.33333333334,56222,37.13,-73.911946,40.67834,Rockaway Av,Bk,IND,C
185,71137.58333333333,30255,42.53,-73.896548,40.674542,Liberty Av,Bk,IND,C
186,78505.08333333333,34518,43.97,-73.890358,40.67271,Van Siclen Av,Bk,IND,C
187,83656.25,34890,41.71,-73.88075,40.67413,Shepherd Av,Bk,IND,C
188,278872.75,122950,44.09,-73.872106,40.675377,Euclid Av,Bk,IND,A C
189,150053.33333333334,66954,44.62,-73.86505,40.677044,Grant Av,Bk,IND,A
190,110217.5,46311,42.02,-73.858992,40.679371,80 St,Q,IND,A
191,72434.91666666667,32530,44.91,-73.85147,40.679843,88 St,Q,IND,A
192,196642.83333333334,91954,46.76,-73.843853,40.680429,Rockaway Blvd,Q,IND,A
193,45503,21523,47.3,-73.837683,40.681711,104 St,Q,IND,A
194,64462.25,30220,46.88,-73.832163,40.684331,111 St,Q,IND,A
195,191263.16666666666,94280,49.29,-73.825798,40.685951,Ozone Park - Lefferts Blvd,Q,IND,A
196,50765,19072,37.57,-73.835919,40.672097,Aqueduct Racetrack,Q,IND,A
197,22767.916666666668,9205,40.43,-73.834058,40.668234,Aqueduct - N Conduit Av,Q,IND,A
198,124007.25,16194,13.06,-73.830301,40.660476,Howard Beach - JFK Airport,Q,IND,A
199,8048.75,3057,37.98,-73.815925,40.608382,Broad Channel,Q,IND,A S
2,182282.5,85481,46.89,-73.917843,40.770258,Astoria Blvd,Q,BMT,N W
200,29791.166666666668,8500,28.53,-73.813641,40.588034,Beach 90 St,Q,IND,A S
201,14077,4406,31.3,-73.820558,40.585307,Beach 98 St,Q,IND,A S
202,7626.666666666667,2096,27.48,-73.827559,40.583209,Beach 105 St,Q,IND,A S
203,20172.25,8308,41.19,-73.835592,40.580903,Rockaway Park - Beach 116 St,Q,IND,A S
204,61495.25,30383,49.41,-73.796924,40.590927,Beach 67 St,Q,IND,A
205,53200.083333333336,24188,45.47,-73.788522,40.592374,Beach 60 St,Q,IND,A
206,18931.833333333332,10006,52.85,-73.776013,40.592943,Beach 44 St,Q,IND,A
207,25148.833333333332,12525,49.8,-73.768175,40.595398,Beach 36 St,Q,IND,A
208,44417.166666666664,21598,48.63,-73.761353,40.600066,Beach 25 St,Q,IND,A
209,114442.41666666667,60285,52.68,-73.755405,40.603995,Far Rockaway - Mott Av,Q,IND,A
210,222966.08333333334,103695,46.51,-73.878855,40.874811,Norwood - 205 St,Bx,IND,D
211,184721.5,77734,42.08,-73.887138,40.873244,Bedford Park Blvd,Bx,IND,B D
212,208632.75,87624,42,-73.893509,40.866978,Kingsbridge Rd,Bx,IND,B D
213,310066,132523,42.74,-73.897749,40.861296,Fordham Rd,Bx,IND,B D
214,127417.08333333333,57824,45.38,-73.900741,40.856093,182-183 Sts,Bx,IND,B D
215,256868.58333333334,112015,43.61,-73.905227,40.85041,Tremont Av,Bx,IND,B D
216,127472,62927,49.37,-73.910136,40.8459,174-175 Sts,Bx,IND,B D
217,178890.66666666666,78717,44,-73.9134,40.839306,170 St,Bx,IND,B D
218,230092.75,108815,47.29,-73.91844,40.833771,167 St,Bx,IND,B D
22,169847,32764,19.29,-74.013342,40.70722,Rector St,M,BMT,R W
220,95428.16666666667,40760,42.71,-73.938209,40.830135,155 St,M,IND,B D
221,295059.75,101819,34.51,-73.942836,40.754203,21 St - Queensbridge,Q,IND,F
222,199164.08333333334,69529,34.91,-73.95326,40.759145,Roosevelt Island,M,IND,F
223,551336.6666666666,179393,32.54,-73.966113000000007,40.764629,Lexington Av/63 St,M,IND,F Q
224,380226.9166666667,87853,23.11,-73.97745,40.763972,57 St,M,IND,F
225,1556054.6666666667,324618,20.86,-73.981329,40.758663,47-50 Sts - Rockefeller Ctr,M,IND,B D F M
228,708990.4166666666,181886,25.65,-73.992821,40.742878,23 St,M,IND,F M
231,671141.5833333334,183772,27.38,-73.993753,40.718267,Grand St,M,IND,B D
232,468824.6666666667,113040,24.11,-73.989938,40.723402,2 Av,M,IND,F
234,373519,112463,30.11,-73.990173,40.713715,East Broadway,M,IND,F
235,328583.4166666667,68641,20.89,-73.986751,40.701397,York St,Bk,IND,F
236,298332.6666666667,86055,28.85,-73.990862,40.686145,Bergen St,Bk,IND,F G
237,301993.5833333333,88161,29.19,-73.995048,40.680303,Carroll St,Bk,IND,F G
238,120997.75,47800,39.5,-73.995959,40.67358,Smith - 9 Sts,Bk,IND,F G
240,308483.4166666667,97438,31.59,-73.980305,40.666271,7 Av,Bk,IND,F G
241,165048.33333333334,46141,27.96,-73.979493,40.660365,15 St - Prospect Park,Bk,IND,F G
242,150760.41666666666,43707,28.99,-73.975776,40.650782,Fort Hamilton Pkwy,Bk,IND,F G
243,260887.5,112117,42.98,-73.979678,40.644041,Church Av,Bk,IND,F
244,98829.58333333333,44101,44.62,-73.978172,40.636119,Ditmas Av,Bk,IND,F
245,93851.5,42433,45.21,-73.976971,40.629755,18 Av,Bk,IND,F
246,49396,20754,42.02,-73.976127,40.625322,Avenue I,Bk,IND,F
247,30863.333333333332,16527,53.55,-73.975264,40.620769,Bay Pkwy,Bk,IND,F
248,74204.16666666667,32494,43.79,-73.974197,40.61514,Avenue N,Bk,IND,F
249,62590.583333333336,28067,44.84,-73.973022,40.608944,Avenue P,Bk,IND,F
250,94974.41666666667,40077,42.2,-73.972361,40.603217,Kings Hwy,Bk,IND,F
251,46597.75,21299,45.71,-73.973357,40.596063,Avenue U,Bk,IND,F
252,67617.83333333333,29525,43.66,-73.97425,40.58962,Avenue X,Bk,IND,F
253,36567.916666666664,14469,39.57,-73.974574,40.581011,Neptune Av,Bk,IND,F
254,534416.1666666666,236384,44.23,-73.783817,40.712646,Jamaica - 179 St,Q,IND,F
255,207919.75,90631,43.59,-73.793604,40.71047,169 St,Q,IND,F
256,177847.66666666666,162362,91.29,-73.803326,40.707564,Parsons Blvd,Q,IND,F
257,114330.91666666667,112959,98.8,-73.810708,40.70546,Sutphin Blvd,Q,IND,F
258,126963.33333333333,50078,39.44,-73.820574,40.709179,Briarwood - Van Wyck Blvd,Q,IND,E F
259,646746.0833333334,255454,39.5,-73.831008,40.714441,Kew Gardens - Union Tpke,Q,IND,E F
26,566705,175389,30.95,-73.981824,40.690635,DeKalb Av,Bk,BMT,B Q R
260,89268.25,28311,31.71,-73.837324,40.718331,75 Av,Q,IND,E F
261,683656.3333333334,233634,34.17,-73.844521,40.721691,Forest Hills - 71 Av,Q,IND,E F M R
262,222732.58333333334,72730,32.65,-73.852719,40.726523,67 Av,Q,IND,M R
263,399952.8333333333,144728,36.19,-73.861604,40.729846,63 Dr - Rego Park,Q,IND,M R
264,536251.9166666666,214774,40.05,-73.869229,40.733106,Woodhaven Blvd,Q,IND,M R
265,480458.25,191670,39.89,-73.877223,40.737015,Grand Av - Newtown,Q,IND,M R
266,324210.5833333333,135722,41.86,-73.882017,40.742454,Elmhurst Av,Q,IND,M R
268,92239.75,36047,39.08,-73.898453,40.749669,65 St,Q,IND,M R
269,170402.75,73883,43.36,-73.906006,40.752885,Northern Blvd,Q,IND,M R
270,218768.91666666666,79858,36.5,-73.913333,40.756312,46 St,Q,IND,M R
271,394753.75,129652,32.84,-73.92074,40.756879,Steinway St,Q,IND,M R
272,119816.33333333333,31639,26.41,-73.928781,40.752039,36 St,Q,IND,M R
273,368319.8333333333,79759,21.65,-73.937243,40.748973,Queens Plaza,Q,IND,E M R
276,643116.4166666666,103360,16.07,-73.975224,40.760167,5 Av/53 St,M,IND,E M
277,464545.4166666667,65275,14.05,-73.981637,40.762862,7 Av,M,IND,B D E
278,1210158.3333333333,173557,14.34,-73.801109,40.702147,Jamaica Center - Parsons/Archer,Q,IND,E J Z
279,621249.25,117447,18.9,-73.807969,40.700486,Sutphin Blvd - Archer Av - JFK Airport,Q,IND,E J Z
28,191237.16666666666,54159,28.32,-73.98311,40.677316,Union St,Bk,BMT,R
280,118887.75,167753,141.1,-73.816859,40.702566,Jamaica - Van Wyck,Q,IND,E
282,45309.333333333336,19650,43.37,-73.949724,40.744065,21 St,Q,IND,G
283,258974.5,104584,40.38,-73.954449,40.731352,Greenpoint Av,Bk,IND,G
284,262255.8333333333,90761,34.61,-73.951277,40.724635,Nassau Av,Bk,IND,G
286,127289.41666666667,60652,47.65,-73.950308,40.706092,Broadway,Bk,IND,G
287,61619.583333333336,35346,57.36,-73.950234,40.700377,Flushing Av,Bk,IND,G
288,153112.16666666666,64214,41.94,-73.949046,40.694568,Myrtle - Willoughby Avs,Bk,IND,G
289,234754.33333333334,83637,35.63,-73.953522,40.689627,Bedford - Nostrand Avs,Bk,IND,G
290,145061.91666666666,51615,35.58,-73.96007,40.688873,Classon Av,Bk,IND,G
291,135516.66666666666,43431,32.05,-73.966839,40.688089,Clinton - Washington Avs,Bk,IND,G
292,149323,58898,39.44,-73.975375,40.687119,Fulton St,Bk,IND,G
293,187417.08333333334,91143,48.63,-73.898583,40.889248,Van Cortlandt Park - 242 St,Bx,IRT,1
294,102286.5,48165,47.09,-73.90087,40.884667,238 St,Bx,IRT,1
295,245373.33333333334,107413,43.78,-73.904834,40.878856,231 St,Bx,IRT,1
296,131882.75,63949,48.49,-73.909831,40.874561,Marble Hill - 225 St,M,IRT,1
297,46548.5,18104,38.89,-73.915279,40.869444,215 St,M,IRT,1
298,159297.5,85162,53.46,-73.918822,40.864621,207 St,M,IRT,1
299,174717.75,96265,55.1,-73.925536,40.860531,Dyckman St,M,IRT,1
3,437617.4166666667,132923,30.37,-73.921479,40.766779,30 Av,Q,BMT,N W
30,149093.5,46028,30.87,-73.992872,40.665414,Prospect Av,Bk,BMT,R
300,195040.5,20123,10.32,-73.929412,40.855225,191 St,M,IRT,1
301,296269.8333333333,163911,55.32,-73.933596,40.849505,181 St,M,IRT,1
304,247063.41666666666,110239,44.62,-73.95036,40.826551,145 St,M,IRT,1
305,326936.1666666667,122670,37.52,-73.953676,40.822008,137 St - City College,M,IRT,1
306,199182.66666666666,69644,34.96,-73.958372,40.815581,125 St,M,IRT,1
307,365496.25,64020,17.52,-73.96411,40.807722,116 St - Columbia University,M,IRT,1
308,309296.5833333333,96992,31.36,-73.966847,40.803967,Cathedral Pkwy,M,IRT,1
309,315009.1666666667,104173,33.07,-73.968379,40.799446,103 St,M,IRT,1
31,97635.5,36470,37.35,-73.998091,40.660397,25 St,Bk,BMT,R
310,974634.25,309598,31.77,-73.972323,40.793919,96 St,M,IRT,1 2 3
311,473729,144223,30.44,-73.976218,40.788644,86 St,M,IRT,1
312,397961,117296,29.47,-73.979917,40.783934,79 St,M,IRT,1
313,1034740,305142,29.49,-73.98197,40.778453,72 St,M,IRT,1 2 3
314,590270.9166666666,112645,19.08,-73.982209,40.77344,66 St - Lincoln Center,M,IRT,1
316,680781.5833333334,98191,14.42,-73.983849,40.761728,50 St,M,IRT,1
318,892586.5833333334,483625,54.18,-73.991057,40.750373,34 St - Penn Station,M,IRT,1 2 3
319,376081.1666666667,72070,19.16,-73.993365,40.747215,28 St,M,IRT,1
32,360819.0833333333,170132,47.15,-74.003549,40.655144,36 St,Bk,BMT,D N R
320,387475.3333333333,97241,25.1,-73.995657,40.744081,23 St,M,IRT,1
321,221522.16666666666,47131,21.28,-73.997871,40.74104,18 St,M,IRT,1
323,286149.4166666667,63192,22.08,-74.002906,40.733422,Christopher St - Sheridan Sq,M,IRT,1
324,376143.9166666667,74534,19.82,-74.005367,40.728251,Houston St,M,IRT,1
325,166669.83333333334,29038,17.42,-74.006277,40.722854,Canal St,M,IRT,1
326,132393.83333333334,27982,21.14,-74.006886,40.719318,Franklin St,M,IRT,1
327,498660,92507,18.55,-74.009266,40.715478,Chambers St,M,IRT,1 2 3
328,358248,54652,15.26,-74.012188,40.711835,WTC Cortlandt,M,IRT,1
329,220282.16666666666,35749,16.23,-74.013783,40.707513,Rector St,M,IRT,1
33,205922.16666666666,86737,42.12,-74.010006,40.648939,45 St,Bk,BMT,R
333,584174.5,98599,16.88,-74.0091,40.706821,Wall St,M,IRT,2 3
334,150715,39431,26.16,-73.993086,40.697466,Clark St,Bk,IRT,2 3
336,196030.91666666666,65787,33.56,-73.985065,40.690545,Hoyt St,Bk,IRT,2 3
337,265663.75,76094,28.64,-73.980492,40.688246,Nevins St,Bk,IRT,2 3 4 5
339,102049.33333333333,27201,26.65,-73.975098,40.680829,Bergen St,Bk,IRT,2 3
34,234165.25,111872,47.77,-74.014034,40.645069,53 St,Bk,BMT,R
340,192317.41666666666,54488,28.33,-73.971046,40.675235,Grand Army Plaza,Bk,IRT,2 3
341,112648.33333333333,34653,30.76,-73.964375,40.671987,Eastern Pkwy - Brooklyn Museum,Bk,IRT,2 3
343,115900.58333333333,37088,32,-73.950466,40.669847,Nostrand Av,Bk,IRT,3
344,124098.66666666667,48352,38.96,-73.942161,40.669399,Kingston Av,Bk,IRT,3
345,674616.1666666666,283232,41.98,-73.932942,40.668897,Crown Hts - Utica Av,Bk,IRT,3 4
346,169897.16666666666,79519,46.8,-73.92261,40.664717,Sutter Av - Rutland Rd,Bk,IRT,3
347,132761.08333333334,63243,47.64,-73.916327,40.661453,Saratoga Av,Bk,IRT,3
348,123883.83333333333,56329,45.47,-73.908946,40.662549,Rockaway Av,Bk,IRT,3
349,57703.416666666664,27179,47.1,-73.902447,40.663515,Junius St,Bk,IRT,3
35,291452.1666666667,138493,47.52,-74.017881,40.641362,59 St,Bk,BMT,N R
350,116069.25,53794,46.35,-73.894895,40.664635,Pennsylvania Av,Bk,IRT,3
351,72487.08333333333,32119,44.31,-73.889395,40.665449,Van Siclen Av,Bk,IRT,3
352,144685.75,69691,48.17,-73.884079,40.666235,New Lots Av,Bk,IRT,3
353,88104.75,32282,36.64,-73.950683,40.667883,President St,Bk,IRT,2 5
354,139843.33333333334,56811,40.62,-73.95085,40.662742,Sterling St,Bk,IRT,2 5
355,159531.25,74394,46.63,-73.9502,40.656652,Winthrop St,Bk,IRT,2 5
356,243438.83333333334,106428,43.72,-73.949575,40.650843,Church Av,Bk,IRT,2 5
357,109321.83333333333,47103,43.09,-73.948959,40.645098,Beverly Rd,Bk,IRT,2 5
358,181890.83333333334,80169,44.08,-73.948411,40.639967,Newkirk Av,Bk,IRT,2 5
359,490632,184259,37.56,-73.947642,40.632836,Flatbush Av - Brooklyn College,Bk,IRT,2 5
36,198479.58333333334,80826,40.72,-74.023377,40.634967,Bay Ridge Av,Bk,BMT,R
360,184921.16666666666,80499,43.53,-73.828121,40.852462,Pelham Bay Park,Bx,IRT,6
361,96692,41058,42.46,-73.832569,40.84681,Buhre Av,Bx,IRT,6
362,51532.166666666664,20036,38.88,-73.836322,40.843863,Middletown Rd,Bx,IRT,6
363,152644.83333333334,70772,46.36,-73.842952,40.839892,Westchester Sq - E Tremont Av,Bx,IRT,6
364,67548.25,28735,42.54,-73.847036,40.836488,Zerega Av,Bx,IRT,6
365,165367,75341,45.56,-73.851222,40.834255,Castle Hill Av,Bx,IRT,6
366,400777.3333333333,173115,43.19,-73.860816,40.833226,Parkchester,Bx,IRT,6
367,107412.91666666667,51656,48.09,-73.867618,40.831509,St Lawrence Av,Bx,IRT,6
368,165522.75,80462,48.61,-73.874516,40.829521,Morrison Av- Sound View,Bx,IRT,6
369,167512.16666666666,88161,52.63,-73.879159,40.828584,Elder Av,Bx,IRT,6
37,141765.83333333334,56121,39.59,-74.02551,40.629742,77 St,Bk,BMT,R
370,49328.25,26234,53.18,-73.886283,40.826525,Whitlock Av,Bx,IRT,6
371,268373.0833333333,130559,48.65,-73.890549,40.820948,Hunts Point Av,Bx,IRT,6
372,80492.25,40487,50.3,-73.896435,40.816104,Longwood Av,Bx,IRT,6
373,124018.41666666667,64696,52.17,-73.904098,40.812118,E 149 St,Bx,IRT,6
374,26849.083333333332,13137,48.93,-73.907657,40.808719,E 143 St - St Mary's St,Bx,IRT,6
375,88639.83333333333,40285,45.45,-73.914042,40.805368,Cypress Av,Bx,IRT,6
376,154052.75,77652,50.41,-73.91924,40.807566,Brook Av,Bx,IRT,6
377,211878.91666666666,92486,43.65,-73.926138,40.810476,3 Av - 138 St,Bx,IRT,6
378,178765.33333333334,85403,47.77,-73.878751,40.886037,Woodlawn,Bx,IRT,4
379,209952.91666666666,102913,49.02,-73.884655,40.87975,Mosholu Pkwy,Bx,IRT,4
38,291190,123292,42.34,-74.028398,40.622687,86 St,Bk,BMT,R
380,130466.91666666667,53698,41.16,-73.890064,40.873412,Bedford Park Blvd - Lehman College,Bx,IRT,4
381,229330.08333333334,105884,46.17,-73.897174,40.86776,Kingsbridge Rd,Bx,IRT,4
382,262216.4166666667,130602,49.81,-73.901034,40.862803,Fordham Rd,Bx,IRT,4
383,149399.16666666666,75984,50.86,-73.903879,40.858407,183 St,Bx,IRT,4
384,262898.5833333333,102493,38.99,-73.907684,40.853453,Burnside Av,Bx,IRT,4
385,144055.58333333334,49058,34.05,-73.911794,40.84848,176 St,Bx,IRT,4
386,129212.5,61559,47.64,-73.914685,40.844434,Mt Eden Av,Bx,IRT,4
387,208790.75,98033,46.95,-73.917791,40.840075,170 St,Bx,IRT,4
388,222223.08333333334,112462,50.61,-73.9214,40.835537,167 St,Bx,IRT,4
39,148865.58333333334,60634,40.73,-74.030876,40.616622,Bay Ridge - 95 St,Bk,BMT,R
391,87733.75,34621,39.46,-73.929849,40.813224,138 St - Grand Concourse,Bx,IRT,4 5
392,725497,256071,35.3,-73.937594,40.804138,125 St,M,IRT,4 5 6
393,384769.1666666667,154696,40.2,-73.941617,40.798629,116 St,M,IRT,6
394,277815.25,110079,39.62,-73.94425,40.79502,110 St,M,IRT,6
395,338637.5,137835,40.7,-73.947478,40.7906,103 St,M,IRT,6
396,431912,167055,38.68,-73.95107,40.785672,96 St,M,IRT,6
397,1130258,372411,32.95,-73.955589,40.779492,86 St,M,IRT,4 5 6
398,653661.25,246869,37.77,-73.959874,40.77362,77 St,M,IRT,6
399,561302.5833333334,171035,30.47,-73.96387,40.768141,68 St - Hunter College,M,IRT,6
4,253924.08333333334,109699,43.2,-73.925508,40.76182,Broadway,Q,BMT,N W
403,733093.3333333334,189478,25.85,-73.982076,40.746081,33 St,M,IRT,6
405,710959.9166666666,142193,20,-73.986599,40.739864,23 St,M,IRT,6
407,448658.5833333333,94432,21.05,-73.99107,40.730054,Astor Pl,M,IRT,6
409,306848.9166666667,66410,21.64,-73.997141,40.722301,Spring St,M,IRT,6
41,260375.91666666666,71971,27.64,-73.972367,40.67705,7 Av,Bk,BMT,B Q
413,468682,84788,18.09,-74.011862,40.707557,Wall St,M,IRT,4 5
414,729557.5,151383,20.75,-74.014065,40.704817,Bowling Green,M,IRT,4 5
416,123454.5,64969,52.63,-73.85062,40.903125,Wakefield - 241 St,Bx,IRT,2
417,84842.91666666667,41112,48.46,-73.854376,40.898379,Nereid Av,Bx,IRT,2 5
418,121477.58333333333,60533,49.83,-73.857473,40.893193,233 St,Bx,IRT,2 5
419,100592.33333333333,44651,44.39,-73.860341,40.888022,225 St,Bx,IRT,2 5
42,281158,96664,34.38,-73.962246,40.661614,Prospect Park,Bk,BMT,B Q
420,82280,36556,44.43,-73.862633,40.883895,219 St,Bx,IRT,2 5
421,191794.5,77644,40.48,-73.866256,40.87785,Gun Hill Rd,Bx,IRT,2 5
422,84413.25,38246,45.31,-73.867164,40.871356,Burke Av,Bx,IRT,2 5
423,135962.91666666666,61024,44.88,-73.867352,40.865462,Allerton Av,Bx,IRT,2 5
424,223549.25,100509,44.96,-73.867615,40.857192,Pelham Pkwy,Bx,IRT,2 5
425,64824,28586,44.1,-73.868457,40.848828,Bronx Park East,Bx,IRT,2 5
426,190486.08333333334,98087,51.49,-73.873488,40.841894,E 180 St,Bx,IRT,2 5
427,178212.75,71990,40.4,-73.880049,40.840295,West Farms Sq - E Tremont Av,Bx,IRT,2 5
428,173312,68460,39.5,-73.887734,40.837288,174 St,Bx,IRT,2 5
429,114903.91666666667,48406,42.13,-73.891865,40.829993,Freeman St,Bx,IRT,2 5
43,164442.16666666666,70161,42.67,-73.961495,40.655292,Parkside Av,Bk,BMT,B Q
430,219718.66666666666,95294,43.37,-73.893064,40.824073,Simpson St,Bx,IRT,2 5
431,81727.66666666667,37437,45.81,-73.896736,40.822181,Intervale Av,Bx,IRT,2 5
432,181031.16666666666,75967,41.96,-73.90177,40.819585,Prospect Av,Bx,IRT,2 5
433,133335.08333333334,54389,40.79,-73.907807,40.81649,Jackson Av,Bx,IRT,2 5
436,95937.75,39531,41.2,-73.93647,40.82388,Harlem - 148 St,M,IRT,3
437,82693,36224,43.81,-73.936245,40.820421,145 St,M,IRT,3
438,356343.75,138550,38.88,-73.94077,40.814229,135 St,M,IRT,2 3
439,722432.5,133898,18.53,-73.945495,40.807754,125 St,M,IRT,2 3
44,425738.5,184486,43.33,-73.962982,40.650527,Church Av,Bk,BMT,B Q
440,281408.6666666667,100259,35.63,-73.949625,40.802098,116 St,M,IRT,2 3
441,223672,76030,33.99,-73.951822,40.799075,Central Park North (110 St),M,IRT,2 3
442,115441.16666666667,52783,45.72,-73.830834,40.8883,Eastchester - Dyre Av,Bx,IRT,5
443,93071,35341,37.97,-73.838591,40.878663,Baychester Av,Bx,IRT,5
444,106326.25,48917,46.01,-73.846384,40.869526,Gun Hill Rd,Bx,IRT,5
445,75992.5,29996,39.47,-73.855359000000007,40.858985,Pelham Pkwy,Bx,IRT,5
446,59924.083333333336,24761,41.32,-73.860495,40.854364,Morris Park,Bx,IRT,5
447,1486520.3333333333,618993,41.64,-73.83003,40.7596,Flushing - Main St,Q,IRT,7
448,177480.08333333334,29278,16.5,-73.845625,40.754622,Mets - Willets Point,Q,IRT,7
449,321373.8333333333,169599,52.77,-73.855334,40.75173,111 St,Q,IRT,7
45,88849.83333333333,38518,43.35,-73.964492,40.644031,Beverley Rd,Bk,BMT,B Q
450,535905.0833333334,279621,52.18,-73.8627,40.749865,103 St - Corona Plaza,Q,IRT,7
451,575556,330830,57.48,-73.869527,40.749145,Junction Blvd,Q,IRT,7
452,441838.0833333333,227364,51.46,-73.876613,40.748408,90 St - Elmhurst Av,Q,IRT,7
453,411397.9166666667,197498,48.01,-73.883697,40.747659,82 St - Jackson Hts,Q,IRT,7
455,131219.08333333334,59844,45.61,-73.896403,40.746325,69 St,Q,IRT,7
456,452121,206930,45.77,-73.902984,40.74563,Woodside - 61 St,Q,IRT,7
457,158644.58333333334,66234,41.75,-73.912549,40.744149,52 St,Q,IRT,7
458,336028.3333333333,139006,41.37,-73.918435,40.743132,46 St,Q,IRT,7
459,257190.41666666666,92860,36.11,-73.924016,40.743781,40 St,Q,IRT,7
46,165381.16666666666,70052,42.36,-73.963891,40.640927,Cortelyou Rd,Bk,BMT,B Q
460,242919.5,62103,25.57,-73.930997,40.744587,33 St,Q,IRT,7
461,422831.8333333333,122483,28.97,-73.940202,40.750582,Queensboro Plaza,Q,IRT,7
463,159405.58333333334,47505,29.8,-73.948916,40.742216,Hunters Point Av,Q,IRT,7
464,389916.9166666667,127286,32.64,-73.953581,40.742626,Vernon Blvd - Jackson Av,Q,IRT,7
47,275177,115224,41.87,-73.962793,40.635082,Newkirk Plaza,Bk,BMT,B Q
471,513549.0833333333,138041,26.88,-74.00191,40.755882,34 St - 11 Av,M,IRT,7
475,516959.0833333333,168792,32.65,-73.947152,40.784318,96 St,M,IND,Q
476,698843.8333333334,193531,27.69,-73.951787,40.777891,86 St,M,IND,Q
477,795241.75,272974,34.33,-73.958424,40.768799,72 St,M,IND,Q
48,83427.41666666667,30576,36.65,-73.961639,40.62927,Avenue H,Bk,BMT,B Q
49,149795.91666666666,68127,45.48,-73.960803,40.625039,Avenue J,Bk,BMT,B Q
5,161764.16666666666,64136,39.65,-73.929575,40.756804,36 Av,Q,BMT,N W
50,143124.58333333334,63376,44.28,-73.959399,40.617618,Avenue M,Bk,BMT,B Q
51,500625.8333333333,217105,43.37,-73.957734,40.60867,Kings Hwy,Bk,BMT,B Q
52,195408.41666666666,84869,43.43,-73.955929,40.5993,Avenue U,Bk,BMT,B Q
53,116329.66666666667,47958,41.23,-73.955161,40.595246,Neck Rd,Bk,BMT,B Q
54,352106.3333333333,150000,42.6,-73.954155,40.586896,Sheepshead Bay,Bk,BMT,B Q
55,315987.5,137786,43.6,-73.961376,40.577621,Brighton Beach,Bk,BMT,B Q
56,87733.66666666667,40720,46.41,-73.968501,40.576312,Ocean Pkwy,Bk,BMT,Q
57,70500.91666666667,24376,34.58,-73.975939,40.576127,W 8 St - NY Aquarium,Bk,BMT,F Q
58,396811.6666666667,159184,40.12,-73.981233,40.577422,Coney Island - Stillwell Av,Bk,BMT,D F N Q
59,143577.16666666666,69924,48.7,-73.994324,40.646292,9 Av,Bk,BMT,D
60,101514.58333333333,49724,48.98,-73.994304,40.640914,Fort Hamilton Pkwy,Bk,BMT,D
601,1236352.5,329274,26.63,-73.996786,40.737335,6 Av,M,BMT,L
602,2676398.25,681540,25.46,-73.990568,40.735736,14 St - Union Sq,M,BMT,N Q R W
604,695010.75,238663,34.34,-73.925651,40.827905,161 St - Yankee Stadium,Bx,IND,B D
605,520026.6666666667,249637,48,-73.939561,40.840719,168 St,M,IND,A C
606,591002.25,148367,25.1,-73.946,40.747846,Court Sq,Q,IND,E M
607,3304563.0833333335,793167,24,-73.98795,40.749567,34 St - Herald Sq,M,BMT,N Q R W
608,329992.0833333333,124165,37.63,-73.988302,40.670847,9 St,Bk,BMT,R
609,1436823.25,293309,20.41,-73.984569,40.754222,42 St - Bryant Pk,M,IND,B D F M
61,82093.83333333333,42424,51.68,-73.994791,40.63626,50 St,Bk,BMT,D
610,3765565.1666666665,692607,18.39,-73.976848,40.751776,Grand Central - 42 St,M,IRT,4 5 6
611,5466863.75,1179186,21.57,-73.986754,40.754672,Times Sq - 42 St,M,BMT,N Q R W
612,533956.8333333334,92356,17.3,-73.969055,40.757552,Lexington Av/53 St,M,IND,E M
613,2454193.75,657778,26.8,-73.967258,40.76266,Lexington Av/59 St,M,BMT,N W R
614,1933360.0833333333,464774,24.04,-73.981736,40.768296,59 St - Columbus Circle,M,IND,A B C D
615,126524.25,58219,46.01,-73.996895,40.626472,62 St,Bk,BMT,D
616,1432151.6666666667,605995,42.31,-73.891338,40.746644,Jackson Hts - Roosevelt Av,Q,IND,E F M R
617,1176332.9166666667,426047,36.22,-73.97881,40.683666,Atlantic Av - Barclays Ctr,Bk,BMT,D N R
618,1197643,278317,23.24,-74.002578,40.739777,8 Av,M,BMT,L
619,1018566,236218,23.19,-73.996204,40.725297,Broadway-Lafayette St,M,IND,B D F M
62,54053.916666666664,27840,51.5,-73.995476,40.631435,55 St,Bk,BMT,D
620,859532.75,209043,24.32,-73.991777,40.6941,Court St,Bk,BMT,R
621,243632.58333333334,109757,45.05,-73.904512,40.679498,Broadway Jct,Bk,BMT,J Z
622,755498.25,146771,19.43,-74.003401,40.713243,Chambers St,M,BMT,J Z
623,1457563.5,324590,22.27,-74.001775,40.719527,Canal St,M,BMT,R W
624,1753734.75,306600,17.48,-74.011029,40.710668,Cortlandt St,M,BMT,R W
625,742730.5,230902,31.09,-73.987437,40.718315,Essex St,M,BMT,J M Z
626,36684.75,11967,32.62,-73.959245,40.670343,Botanic Garden,Bk,BMT,S
627,553459,171174,30.93,-73.955827,40.680596,Franklin Av,Bk,BMT,S
628,2285492.25,505830,22.13,-74.007582,40.710374,Fulton St,M,BMT,J Z
629,394683,124046,31.43,-73.950275,40.714063,Lorimer St,Bk,BMT,L
630,499508.75,224483,44.94,-73.912385,40.69943,Myrtle - Wyckoff Avs,Bk,BMT,M
635,877079,187921,21.43,-74.012994,40.703087,Whitehall St,M,BMT,R W
636,1049241.9166666667,253772,24.19,-73.985942,40.69218,Jay St - MetroTech,Bk,BMT,R
64,145508.5,56997,39.17,-73.998864,40.619589,71 St,Bk,BMT,D
65,161987.66666666666,65401,40.37,-74.00061,40.613501,79 St,Bk,BMT,D
66,163728.33333333334,67524,41.24,-74.001736,40.607954,18 Av,Bk,BMT,D
67,133118.41666666666,56721,42.61,-73.998168,40.604556,20 Av,Bk,BMT,D
68,206732.66666666666,90523,43.79,-73.993728,40.601875,Bay Pkwy,Bk,BMT,D
69,128298.5,48522,37.82,-73.986829,40.597704,25 Av,Bk,BMT,D
70,69953.16666666667,27405,39.18,-73.983765,40.588841,Bay 50 St,Bk,BMT,D
71,318995.0833333333,109699,34.39,-74.011719,40.635064,8 Av,Bk,BMT,N
72,114200.5,60476,52.96,-74.005351,40.631386,Fort Hamilton Pkwy,Bk,BMT,N
74,99360.66666666667,57422,57.79,-73.990414,40.620671,18 Av,Bk,BMT,N
75,95717.25,37547,39.23,-73.985026,40.61741,20 Av,Bk,BMT,N
76,174321.33333333334,75544,43.34,-73.981848,40.611815,Bay Pkwy,Bk,BMT,N
77,116552.91666666667,56170,48.19,-73.980353,40.603923,Kings Hwy,Bk,BMT,N
78,86686.58333333333,43061,49.67,-73.979137,40.597473,Avenue U,Bk,BMT,N
79,60447.583333333336,29002,47.98,-73.97823,40.592721,86 St,Bk,BMT,N
8,1037672.5,119434,11.51,-73.973347,40.764811,5 Av/59 St,M,BMT,N W R
80,57710.416666666664,27130,47.01,-73.828294,40.700492,121 St,Q,BMT,J Z
81,44575.375,24507,54.98,-73.836345,40.697418,111 St,Q,BMT,J
82,65364.083333333336,26912,41.17,-73.84433,40.695178,104 St,Q,BMT,J Z
83,113047.25,58480,51.73,-73.851576,40.693879,Woodhaven Blvd,Q,BMT,J Z
84,89773.83333333333,45500,50.68,-73.86001,40.692435,85 St - Forest Pkwy,Q,BMT,J
85,86600.16666666667,45896,53,-73.867139,40.691324,75 St,Q,BMT,J Z
86,35658.583333333336,19433,54.5,-73.87255,40.689941,Cypress Hills,Bk,BMT,J
87,117372.08333333333,58976,50.25,-73.873785,40.683194,Crescent St,Bk,BMT,J Z
88,79991.08333333333,36796,46,-73.880039,40.68141,Norwood Av,Bk,BMT,J Z
89,74646.91666666667,34929,46.79,-73.884639,40.679947,Cleveland St,Bk,BMT,J
9,923761.3333333334,200406,21.69,-73.980658,40.764664,57 St - 7 Av,M,BMT,N Q R W
90,66873.75,35330,52.83,-73.891688,40.678024,Van Siclen Av,Bk,BMT,J Z
91,54954,29850,54.32,-73.898654,40.676992,Alabama Av,Bk,BMT,J
93,91218.25,36623,40.15,-73.910456,40.682893,Chauncey St,Bk,BMT,J Z
94,178155.33333333334,64136,36,-73.916559,40.68637,Halsey St,Bk,BMT,J
95,190267.33333333334,71014,37.32,-73.92227,40.68963,Gates Av,Bk,BMT,J Z
96,150713.5,55238,36.65,-73.928814,40.693342,Kosciuszko St,Bk,BMT,J
97,324921.5,107612,33.12,-73.935657,40.697207,Myrtle Av,Bk,BMT,J M Z
98,234112.41666666666,103471,44.2,-73.941126,40.70026,Flushing Av,Bk,BMT,J M
99,147159.5,52543,35.7,-73.947408,40.703869,Lorimer St,Bk,BMT,J M
